{
    "type": "FeatureCollection",
    "features": [{
            "type": "Feature",
            "geometry": {
                "type": "Point",
                "coordinates": [-0.370679, 49.182861]
            },
            "properties": {
                "id": 1,
                "location": "Caen",
                "date": "17",
                "month": "june",
                "year": 1066,
                "month(number)": 6,
                "time": "17-6-1066",
                "OSGridRef": ""
            }
        },
        {
            "type": "Feature",
            "geometry": {
                "type": "Point",
                "coordinates": [0.3383067, 50.820303]
            },
            "properties": {
                "id": 2,
                "location": "Pevensey",
                "date": "29",
                "month": "september",
                "year": 1066,
                "month(number)": 9,
                "time": "29-9-1066",
                "OSGridRef": "TQ6480304912"
            }
        },
        {
            "type": "Feature",
            "geometry": {
                "type": "Point",
                "coordinates": [0.4875, 50.911944]
            },
            "properties": {
                "id": 3,
                "location": "Senlac",
                "date": "14",
                "month": "october",
                "year": 1066,
                "month(number)": 10,
                "time": "14-10-1066",
                "OSGridRef": "TQ7496715444"
            }
        },
        {
            "type": "Feature",
            "geometry": {
                "type": "Point",
                "coordinates": [0.4875, 50.911944]
            },
            "properties": {
                "id": 4,
                "location": "Senlac",
                "date": "15",
                "month": "october",
                "year": 1066,
                "month(number)": 10,
                "time": "15-10-1066",
                "OSGridRef": "TQ7496715444"
            }
        },
        {
            "type": "Feature",
            "geometry": {
                "type": "Point",
                "coordinates": [-0.12617168, 51.500988]
            },
            "properties": {
                "id": 5,
                "location": "Westminster",
                "date": "25",
                "month": "december",
                "year": 1066,
                "month(number)": 12,
                "time": "25-12-1066",
                "OSGridRef": "TQ3016079670"
            }
        },
        {
            "type": "Feature",
            "geometry": {
                "type": "Point",
                "coordinates": [0.37584, 49.758572]
            },
            "properties": {
                "id": 7,
                "location": "Fécamp",
                "date": "8",
                "month": "april",
                "year": 1067,
                "month(number)": 4,
                "time": "8-4-1067",
                "OSGridRef": ""
            }
        },
        {
            "type": "Feature",
            "geometry": {
                "type": "Point",
                "coordinates": [1.2067, 49.2569]
            },
            "properties": {
                "id": 8,
                "location": "Vaudreuil",
                "date": "-",
                "month": "april",
                "year": 1067,
                "month(number)": 4,
                "time": "4-1067",
                "OSGridRef": ""
            }
        },
        {
            "type": "Feature",
            "geometry": {
                "type": "Point",
                "coordinates": [-0.03, 49.02]
            },
            "properties": {
                "id": 9,
                "location": "St. Pierre sur Dive",
                "date": "1",
                "month": "may",
                "year": 1067,
                "month(number)": 5,
                "time": "1-5-1067",
                "OSGridRef": ""
            }
        },
        {
            "type": "Feature",
            "geometry": {
                "type": "Point",
                "coordinates": [0.8214, 49.4344]
            },
            "properties": {
                "id": 10,
                "location": "Jumiéges",
                "date": "1",
                "month": "july",
                "year": 1067,
                "month(number)": 7,
                "time": "1-7-1067",
                "OSGridRef": ""
            }
        },
        {
            "type": "Feature",
            "geometry": {
                "type": "Point",
                "coordinates": [-0.092140265, 51.515457]
            },
            "properties": {
                "id": 13,
                "location": "London",
                "date": "25",
                "month": "december",
                "year": 1067,
                "month(number)": 12,
                "time": "25-12-1067",
                "OSGridRef": "TQ3248081340"
            }
        },
        {
            "type": "Feature",
            "geometry": {
                "type": "Point",
                "coordinates": [-1.3193687, 51.062549]
            },
            "properties": {
                "id": 14,
                "location": "Winchester",
                "date": "23",
                "month": "march",
                "year": 1068,
                "month(number)": 3,
                "time": "23-3-1068",
                "OSGridRef": "SU4779329466"
            }
        },
        {
            "type": "Feature",
            "geometry": {
                "type": "Point",
                "coordinates": [-0.12617168, 51.500988]
            },
            "properties": {
                "id": 15,
                "location": "Westminster",
                "date": "11",
                "month": "may",
                "year": 1068,
                "month(number)": 5,
                "time": "11-5-1068",
                "OSGridRef": "TQ3016079670"
            }
        },
        {
            "type": "Feature",
            "geometry": {
                "type": "Point",
                "coordinates": [-1.7944127, 51.073647]
            },
            "properties": {
                "id": 16,
                "location": "Salisbury",
                "date": "4",
                "month": "february",
                "year": 1069,
                "month(number)": 2,
                "time": "4-2-1069",
                "OSGridRef": "SU1450030500"
            }
        },
        {
            "type": "Feature",
            "geometry": {
                "type": "Point",
                "coordinates": [-1.3193687, 51.062549]
            },
            "properties": {
                "id": 17,
                "location": "Winchester",
                "date": "12",
                "month": "april",
                "year": 1069,
                "month(number)": 4,
                "time": "12-4-1069",
                "OSGridRef": "SU4779329466"
            }
        },
        {
            "type": "Feature",
            "geometry": {
                "type": "Point",
                "coordinates": [-1.3193687, 51.062549]
            },
            "properties": {
                "id": 18,
                "location": "Winchester",
                "date": "13",
                "month": "april",
                "year": 1069,
                "month(number)": 4,
                "time": "13-4-1069",
                "OSGridRef": "SU4779329466"
            }
        },
        {
            "type": "Feature",
            "geometry": {
                "type": "Point",
                "coordinates": [-2.54, 51.79]
            },
            "properties": {
                "id": 19,
                "location": "Forest of Dean",
                "date": "1",
                "month": "september",
                "year": 1069,
                "month(number)": 9,
                "time": "1-9-1069",
                "OSGridRef": "SO6285110287"
            }
        },
        {
            "type": "Feature",
            "geometry": {
                "type": "Point",
                "coordinates": [-2.2369318, 55.287144]
            },
            "properties": {
                "id": 20,
                "location": "Harrying of North",
                "date": "-",
                "month": "november",
                "year": 1069,
                "month(number)": 11,
                "time": "11-1069",
                "OSGridRef": "NY8505099250"
            }
        },
        {
            "type": "Feature",
            "geometry": {
                "type": "Point",
                "coordinates": [-1.0825156, 53.957883]
            },
            "properties": {
                "id": 21,
                "location": "York",
                "date": "25",
                "month": "december",
                "year": 1069,
                "month(number)": 12,
                "time": "25-12-1069",
                "OSGridRef": "SE6030051700"
            }
        },
        {
            "type": "Feature",
            "geometry": {
                "type": "Point",
                "coordinates": [-1.1474, 54.64832]
            },
            "properties": {
                "id": 22,
                "location": "At river Tee",
                "date": "1",
                "month": "january",
                "year": 1070,
                "month(number)": 1,
                "time": "1-1-1070",
                "OSGridRef": "NZ5511428469"
            }
        },
        {
            "type": "Feature",
            "geometry": {
                "type": "Point",
                "coordinates": [-1.3193687, 51.062549]
            },
            "properties": {
                "id": 23,
                "location": "Winchester",
                "date": "4",
                "month": "april",
                "year": 1070,
                "month(number)": 4,
                "time": "4-4-1070",
                "OSGridRef": "SU4779329466"
            }
        },
        {
            "type": "Feature",
            "geometry": {
                "type": "Point",
                "coordinates": [-1.3193687, 51.062549]
            },
            "properties": {
                "id": 24,
                "location": "Winchester",
                "date": "11",
                "month": "april",
                "year": 1070,
                "month(number)": 4,
                "time": "11-4-1070",
                "OSGridRef": "SU4779329466"
            }
        },
        {
            "type": "Feature",
            "geometry": {
                "type": "Point",
                "coordinates": [-0.60683638, 51.482886]
            },
            "properties": {
                "id": 25,
                "location": "Windsor",
                "date": "23",
                "month": "may",
                "year": 1070,
                "month(number)": 5,
                "time": "23-5-1070",
                "OSGridRef": "SU9683776912"
            }
        },
        {
            "type": "Feature",
            "geometry": {
                "type": "Point",
                "coordinates": [-0.12617168, 51.500988]
            },
            "properties": {
                "id": 26,
                "location": "Westminster",
                "date": "27",
                "month": "may",
                "year": 1070,
                "month(number)": 5,
                "time": "27-5-1070",
                "OSGridRef": "TQ3016079670"
            }
        },
        {
            "type": "Feature",
            "geometry": {
                "type": "Point",
                "coordinates": [-0.092140265, 51.515457]
            },
            "properties": {
                "id": 27,
                "location": "London",
                "date": "-",
                "month": "january",
                "year": 1071,
                "month(number)": 1,
                "time": "1-1071",
                "OSGridRef": "TQ3248081340"
            }
        },
        {
            "type": "Feature",
            "geometry": {
                "type": "Point",
                "coordinates": [0.262222, 52.398056]
            },
            "properties": {
                "id": 28,
                "location": "Ely",
                "date": "27",
                "month": "october",
                "year": 1071,
                "month(number)": 10,
                "time": "27-10-1071",
                "OSGridRef": "TL5401380190"
            }
        },
        {
            "type": "Feature",
            "geometry": {
                "type": "Point",
                "coordinates": [-1.3193687, 51.062549]
            },
            "properties": {
                "id": 29,
                "location": "Winchester",
                "date": "8",
                "month": "april",
                "year": 1072,
                "month(number)": 4,
                "time": "8-4-1072",
                "OSGridRef": "SU4779329466"
            }
        },
        {
            "type": "Feature",
            "geometry": {
                "type": "Point",
                "coordinates": [-1.7420011, 51.071025]
            },
            "properties": {
                "id": 30,
                "location": "Clarendon",
                "date": "16",
                "month": "april",
                "year": 1072,
                "month(number)": 4,
                "time": "16-4-1072",
                "OSGridRef": "SU1817330220"
            }
        },
        {
            "type": "Feature",
            "geometry": {
                "type": "Point",
                "coordinates": [-0.60683638, 51.482886]
            },
            "properties": {
                "id": 31,
                "location": "Windsor",
                "date": "27",
                "month": "may",
                "year": 1072,
                "month(number)": 5,
                "time": "27-5-1072",
                "OSGridRef": "SU9683776912"
            }
        },
        {
            "type": "Feature",
            "geometry": {
                "type": "Point",
                "coordinates": [-3.9397121, 56.118987]
            },
            "properties": {
                "id": 32,
                "location": "Scotland",
                "date": "-",
                "month": "september",
                "year": 1072,
                "month(number)": 9,
                "time": "9-1072",
                "OSGridRef": "NS7950093500"
            }
        },
        {
            "type": "Feature",
            "geometry": {
                "type": "Point",
                "coordinates": [-1.5733, 54.7761]
            },
            "properties": {
                "id": 33,
                "location": "Durham",
                "date": "2",
                "month": "november",
                "year": 1072,
                "month(number)": 11,
                "time": "2-11-1072",
                "OSGridRef": "NZ2754642437"
            }
        },
        {
            "type": "Feature",
            "geometry": {
                "type": "Point",
                "coordinates": [0.1206, 49.3389]
            },
            "properties": {
                "id": 34,
                "location": "Bonneville sur Touques",
                "date": "30",
                "month": "march",
                "year": 1073,
                "month(number)": 3,
                "time": "30-3-1073",
                "OSGridRef": ""
            }
        },
        {
            "type": "Feature",
            "geometry": {
                "type": "Point",
                "coordinates": [0.1984, 48.0077]
            },
            "properties": {
                "id": 35,
                "location": "Le Mans",
                "date": "-",
                "month": "april",
                "year": 1073,
                "month(number)": 4,
                "time": "4-1073",
                "OSGridRef": ""
            }
        },
        {
            "type": "Feature",
            "geometry": {
                "type": "Point",
                "coordinates": [1.088611, 49.442778]
            },
            "properties": {
                "id": 36,
                "location": "Rouen",
                "date": "30",
                "month": "november",
                "year": 1074,
                "month(number)": 11,
                "time": "30-11-1074",
                "OSGridRef": ""
            }
        },
        {
            "type": "Feature",
            "geometry": {
                "type": "Point",
                "coordinates": [0.37584, 49.758572]
            },
            "properties": {
                "id": 37,
                "location": "Fécamp",
                "date": "5",
                "month": "april",
                "year": 1075,
                "month(number)": 4,
                "time": "5-4-1075",
                "OSGridRef": ""
            }
        },
        {
            "type": "Feature",
            "geometry": {
                "type": "Point",
                "coordinates": [-0.12617168, 51.500988]
            },
            "properties": {
                "id": 38,
                "location": "Westminster",
                "date": "25",
                "month": "december",
                "year": 1075,
                "month(number)": 12,
                "time": "25-12-1075",
                "OSGridRef": "TQ3016079670"
            }
        },
        {
            "type": "Feature",
            "geometry": {
                "type": "Point",
                "coordinates": [-2.7603, 47.655899]
            },
            "properties": {
                "id": 39,
                "location": "Brittany",
                "date": "-",
                "month": "may",
                "year": 1076,
                "month(number)": 5,
                "time": "5-1076",
                "OSGridRef": ""
            }
        },
        {
            "type": "Feature",
            "geometry": {
                "type": "Point",
                "coordinates": [1.088611, 49.442778]
            },
            "properties": {
                "id": 40,
                "location": "Rouen",
                "date": "25",
                "month": "july",
                "year": 1077,
                "month(number)": 7,
                "time": "25-7-1077",
                "OSGridRef": ""
            }
        },
        {
            "type": "Feature",
            "geometry": {
                "type": "Point",
                "coordinates": [-0.370679, 49.182861]
            },
            "properties": {
                "id": 41,
                "location": "Caen",
                "date": "13",
                "month": "september",
                "year": 1077,
                "month(number)": 9,
                "time": "13-9-1077",
                "OSGridRef": ""
            }
        },
        {
            "type": "Feature",
            "geometry": {
                "type": "Point",
                "coordinates": [1.8506, 49.535]
            },
            "properties": {
                "id": 42,
                "location": "Gerberoy",
                "date": "-",
                "month": "january",
                "year": 1079,
                "month(number)": 1,
                "time": "1-1079",
                "OSGridRef": ""
            }
        },
        {
            "type": "Feature",
            "geometry": {
                "type": "Point",
                "coordinates": [-0.370679, 49.182861]
            },
            "properties": {
                "id": 43,
                "location": "Caen",
                "date": "7",
                "month": "january",
                "year": 1080,
                "month(number)": 1,
                "time": "7-1-1080",
                "OSGridRef": ""
            }
        },
        {
            "type": "Feature",
            "geometry": {
                "type": "Point",
                "coordinates": [0.9645, 49.4442]
            },
            "properties": {
                "id": 44,
                "location": "St. Georges de Boscherville",
                "date": "11",
                "month": "january",
                "year": 1080,
                "month(number)": 1,
                "time": "11-1-1080",
                "OSGridRef": ""
            }
        },
        {
            "type": "Feature",
            "geometry": {
                "type": "Point",
                "coordinates": [1.088611, 49.442778]
            },
            "properties": {
                "id": 45,
                "location": "Rouen",
                "date": "12",
                "month": "april",
                "year": 1080,
                "month(number)": 4,
                "time": "12-4-1080",
                "OSGridRef": ""
            }
        },
        {
            "type": "Feature",
            "geometry": {
                "type": "Point",
                "coordinates": [0.5343, 49.5189]
            },
            "properties": {
                "id": 46,
                "location": "Lillebonne",
                "date": "31",
                "month": "may",
                "year": 1080,
                "month(number)": 5,
                "time": "31-5-1080",
                "OSGridRef": ""
            }
        },
        {
            "type": "Feature",
            "geometry": {
                "type": "Point",
                "coordinates": [-0.370679, 49.182861]
            },
            "properties": {
                "id": 47,
                "location": "Caen",
                "date": "14",
                "month": "july",
                "year": 1080,
                "month(number)": 7,
                "time": "14-7-1080",
                "OSGridRef": ""
            }
        },
        {
            "type": "Feature",
            "geometry": {
                "type": "Point",
                "coordinates": [-2.4570708, 51.687965]
            },
            "properties": {
                "id": 48,
                "location": "Berkeley",
                "date": "25",
                "month": "december",
                "year": 1080,
                "month(number)": 12,
                "time": "25-12-1080",
                "OSGridRef": "ST6850098900"
            }
        },
        {
            "type": "Feature",
            "geometry": {
                "type": "Point",
                "coordinates": [-2.2453868, 51.865722]
            },
            "properties": {
                "id": 49,
                "location": "Gloucester",
                "date": "3",
                "month": "january",
                "year": 1081,
                "month(number)": 1,
                "time": "3-1-1081",
                "OSGridRef": "SO8320018600"
            }
        },
        {
            "type": "Feature",
            "geometry": {
                "type": "Point",
                "coordinates": [-0.092140265, 51.515457]
            },
            "properties": {
                "id": 50,
                "location": "London",
                "date": "-",
                "month": "february",
                "year": 1081,
                "month(number)": 2,
                "time": "2-1081",
                "OSGridRef": "TQ3248081340"
            }
        },
        {
            "type": "Feature",
            "geometry": {
                "type": "Point",
                "coordinates": [-1.3193687, 51.062549]
            },
            "properties": {
                "id": 51,
                "location": "Winchester",
                "date": "31",
                "month": "may",
                "year": 1081,
                "month(number)": 5,
                "time": "31-5-1081",
                "OSGridRef": "SU4779329466"
            }
        },
        {
            "type": "Feature",
            "geometry": {
                "type": "Point",
                "coordinates": [-0.12617168, 51.500988]
            },
            "properties": {
                "id": 52,
                "location": "Westminster",
                "date": "25",
                "month": "december",
                "year": 1081,
                "month(number)": 12,
                "time": "25-12-1081",
                "OSGridRef": "TQ3016079670"
            }
        },
        {
            "type": "Feature",
            "geometry": {
                "type": "Point",
                "coordinates": [1.0922, 49.3425]
            },
            "properties": {
                "id": 53,
                "location": "Oissel",
                "date": "24",
                "month": "june",
                "year": 1082,
                "month(number)": 6,
                "time": "24-6-1082",
                "OSGridRef": ""
            }
        },
        {
            "type": "Feature",
            "geometry": {
                "type": "Point",
                "coordinates": [-2.2453868, 51.865722]
            },
            "properties": {
                "id": 55,
                "location": "Gloucester",
                "date": "25",
                "month": "december",
                "year": 1082,
                "month(number)": 12,
                "time": "25-12-1082",
                "OSGridRef": "SO8320018600"
            }
        },
        {
            "type": "Feature",
            "geometry": {
                "type": "Point",
                "coordinates": [0.37584, 49.758572]
            },
            "properties": {
                "id": 56,
                "location": "Fécamp",
                "date": "9",
                "month": "april",
                "year": 1083,
                "month(number)": 4,
                "time": "9-4-1083",
                "OSGridRef": ""
            }
        },
        {
            "type": "Feature",
            "geometry": {
                "type": "Point",
                "coordinates": [-0.12617168, 51.500988]
            },
            "properties": {
                "id": 57,
                "location": "Westminster",
                "date": "19",
                "month": "may",
                "year": 1084,
                "month(number)": 5,
                "time": "19-5-1084",
                "OSGridRef": "TQ3016079670"
            }
        },
        {
            "type": "Feature",
            "geometry": {
                "type": "Point",
                "coordinates": [1.088611, 49.442778]
            },
            "properties": {
                "id": 58,
                "location": "Rouen",
                "date": "19",
                "month": "june",
                "year": 1084,
                "month(number)": 6,
                "time": "19-6-1084",
                "OSGridRef": ""
            }
        },
        {
            "type": "Feature",
            "geometry": {
                "type": "Point",
                "coordinates": [-1.3193687, 51.062549]
            },
            "properties": {
                "id": 59,
                "location": "Winchester",
                "date": "6",
                "month": "april",
                "year": 1086,
                "month(number)": 4,
                "time": "6-4-1086",
                "OSGridRef": "SU4779329466"
            }
        },
        {
            "type": "Feature",
            "geometry": {
                "type": "Point",
                "coordinates": [-0.12617168, 51.500988]
            },
            "properties": {
                "id": 60,
                "location": "Westminster",
                "date": "24",
                "month": "may",
                "year": 1086,
                "month(number)": 5,
                "time": "24-5-1086",
                "OSGridRef": "TQ3016079670"
            }
        },
        {
            "type": "Feature",
            "geometry": {
                "type": "Point",
                "coordinates": [-1.7944127, 51.073647]
            },
            "properties": {
                "id": 61,
                "location": "Salisbury",
                "date": "1",
                "month": "august",
                "year": 1086,
                "month(number)": 8,
                "time": "1-8-1086",
                "OSGridRef": "SU1450030500"
            }
        },
        {
            "type": "Feature",
            "geometry": {
                "type": "Point",
                "coordinates": [1.7172, 48.9908]
            },
            "properties": {
                "id": 62,
                "location": "Mantes",
                "date": "24",
                "month": "july",
                "year": 1087,
                "month(number)": 7,
                "time": "24-7-1087",
                "OSGridRef": ""
            }
        },
        {
            "type": "Feature",
            "geometry": {
                "type": "Point",
                "coordinates": [1.7172, 48.9908]
            },
            "properties": {
                "id": 63,
                "location": "Mantes",
                "date": "25",
                "month": "july",
                "year": 1087,
                "month(number)": 7,
                "time": "25-7-1087",
                "OSGridRef": ""
            }
        },
        {
            "type": "Feature",
            "geometry": {
                "type": "Point",
                "coordinates": [1.7172, 48.9908]
            },
            "properties": {
                "id": 64,
                "location": "Mantes",
                "date": "26",
                "month": "july",
                "year": 1087,
                "month(number)": 7,
                "time": "26-7-1087",
                "OSGridRef": ""
            }
        },
        {
            "type": "Feature",
            "geometry": {
                "type": "Point",
                "coordinates": [1.7172, 48.9908]
            },
            "properties": {
                "id": 65,
                "location": "Mantes",
                "date": "27",
                "month": "july",
                "year": 1087,
                "month(number)": 7,
                "time": "27-7-1087",
                "OSGridRef": ""
            }
        },
        {
            "type": "Feature",
            "geometry": {
                "type": "Point",
                "coordinates": [1.7172, 48.9908]
            },
            "properties": {
                "id": 66,
                "location": "Mantes",
                "date": "28",
                "month": "july",
                "year": 1087,
                "month(number)": 7,
                "time": "28-7-1087",
                "OSGridRef": ""
            }
        },
        {
            "type": "Feature",
            "geometry": {
                "type": "Point",
                "coordinates": [1.7172, 48.9908]
            },
            "properties": {
                "id": 67,
                "location": "Mantes",
                "date": "29",
                "month": "july",
                "year": 1087,
                "month(number)": 7,
                "time": "29-7-1087",
                "OSGridRef": ""
            }
        },
        {
            "type": "Feature",
            "geometry": {
                "type": "Point",
                "coordinates": [1.7172, 48.9908]
            },
            "properties": {
                "id": 68,
                "location": "Mantes",
                "date": "30",
                "month": "july",
                "year": 1087,
                "month(number)": 7,
                "time": "30-7-1087",
                "OSGridRef": ""
            }
        },
        {
            "type": "Feature",
            "geometry": {
                "type": "Point",
                "coordinates": [1.7172, 48.9908]
            },
            "properties": {
                "id": 69,
                "location": "Mantes",
                "date": "31",
                "month": "july",
                "year": 1087,
                "month(number)": 7,
                "time": "31-7-1087",
                "OSGridRef": ""
            }
        },
        {
            "type": "Feature",
            "geometry": {
                "type": "Point",
                "coordinates": [1.088611, 49.442778]
            },
            "properties": {
                "id": 70,
                "location": "Rouen",
                "date": "9",
                "month": "september",
                "year": 1087,
                "month(number)": 9,
                "time": "9-9-1087",
                "OSGridRef": ""
            }
        }
    ]
}